{
    "breweries": [
        {
        "id": "10-barrel-brewing-co-denver-denver",
        "name": "10 Barrel Brewing Co - Denver",
        "brewery_type": "large",
        "street": "2620 Walnut St",
        "city": "Denver",
        "state": "Colorado",
        "postal_code": "80205-2231",
        "country": "United States",
        "longitude": "-104.9853655",
        "latitude": "39.7592508",
        "phone": "7205738992",
        "website_url": "https://10barrel.com",
        "updated_at": "2022-11-11T05:07:58.723Z",
        "created_at": "2022-11-11T05:07:58.723Z"
        },
        {
        "id": "14er-brewing-company-denver",
        "name": "14er Brewing Company",
        "brewery_type": "proprietor",
        "street": "2801 Walnut St",
        "city": "Denver",
        "state": "Colorado",
        "postal_code": "80205-2235",
        "country": "United States",
        "longitude": "-104.9839636",
        "latitude": "39.7614112",
        "phone": "7207731437",
        "website_url": "http://www.14erBrewing.com",
        "updated_at": "2022-11-11T05:07:58.723Z",
        "created_at": "2022-11-11T05:07:58.723Z"
        },
        {
        "id": "alpine-dog-brewing-co-denver",
        "name": "Alpine Dog Brewing Co",
        "brewery_type": "micro",
        "street": "1505 N Ogden St",
        "city": "Denver",
        "state": "Colorado",
        "postal_code": "80218-1405",
        "country": "United States",
        "longitude": null,
        "latitude": null,
        "phone": "3038321245",
        "website_url": "http://www.alpinedogbrewery.com",
        "updated_at": "2022-11-11T05:07:58.723Z",
        "created_at": "2022-11-11T05:07:58.723Z"
        },
        {
        "id": "alternation-brewing-company-denver",
        "name": "Alternation Brewing Company",
        "brewery_type": "micro",
        "street": "1539 S Broadway",
        "city": "Denver",
        "state": "Colorado",
        "postal_code": "80210-2607",
        "country": "United States",
        "longitude": "-104.9876117",
        "latitude": "39.68866374",
        "phone": "3038025340",
        "website_url": "http://www.alternationbrewing.com",
        "updated_at": "2022-11-11T05:07:58.723Z",
        "created_at": "2022-11-11T05:07:58.723Z"
        },
        {
        "id": "amalgam-brewing-denver",
        "name": "Amalgam Brewing",
        "brewery_type": "proprietor",
        "street": "6381 Beach St Unit A",
        "city": "Denver",
        "state": "Colorado",
        "postal_code": "80221-2036",
        "country": "United States",
        "longitude": null,
        "latitude": null,
        "phone": null,
        "website_url": "http://www.amalgambrewing.com",
        "updated_at": "2022-11-11T05:07:58.723Z",
        "created_at": "2022-11-11T05:07:58.723Z"
        },
        {
        "id": "baere-brewing-company-denver",
        "name": "Baere Brewing Company",
        "brewery_type": "micro",
        "street": "320 Broadway, Unit E",
        "city": "Denver",
        "state": "Colorado",
        "postal_code": "80203-3955",
        "country": "United States",
        "longitude": null,
        "latitude": null,
        "phone": "9709014810",
        "website_url": "http://www.baerebrewing.com",
        "updated_at": "2022-11-11T05:07:58.723Z",
        "created_at": "2022-11-11T05:07:58.723Z"
        },
        {
        "id": "banded-oak-brewing-company-denver",
        "name": "Banded Oak Brewing Company",
        "brewery_type": "brewpub",
        "street": "470 N Broadway",
        "city": "Denver",
        "state": "Colorado",
        "postal_code": "80203-3404",
        "country": "United States",
        "longitude": "-104.9874187",
        "latitude": "39.7282897",
        "phone": "7204798033",
        "website_url": "http://Bandedoakbrewing.com",
        "updated_at": "2022-11-11T05:07:58.723Z",
        "created_at": "2022-11-11T05:07:58.723Z"
        },
        {
        "id": "bierstadt-lagerhaus-denver",
        "name": "Bierstadt Lagerhaus",
        "brewery_type": "brewpub",
        "street": "2875 Blake St",
        "city": "Denver",
        "state": "Colorado",
        "postal_code": "80205-2210",
        "country": "United States",
        "longitude": "-104.9838084",
        "latitude": "39.7630094",
        "phone": "7205707824",
        "website_url": "http://www.bierstadtlager.com",
        "updated_at": "2022-11-11T05:07:58.723Z",
        "created_at": "2022-11-11T05:07:58.723Z"
        }
    ]
}